[
    {
        "id": "1",
        "code": "",
        "lat": 6.749664,
        "lon": 11.803660,
        "name": "Banyo"
    },{
        "id": "2",
        "code": "",
        "lat": 6.516397,
        "lon": 14.291927,
        "name": "Meiganga"
    },{
        "id": "3",
        "code": "",
        "lat": 7.338149,
        "lon": 13.566830,
        "name": "Ngaoundéré"
    },{
        "id": "4",
        "code": "",
        "lat": 6.470326,
        "lon": 12.618751,
        "name": "Tibati"
    },{
        "id": "5",
        "code": "",
        "lat": 7.373087,
        "lon": 12.653200,
        "name": "Tignère"
    }
]