[
    {
        "id": "1",
        "code": "",
        "lat": 3.782763,
        "lon": 12.249070,
        "name": "Akonolinga"
    },{
        "id": "2",
        "code": "",
        "lat": 4.754604,
        "lon": 11.224044,
        "name": "Bafia"
    },{
        "id": "3",
        "code": "",
        "lat": 3.642679,
        "lon": 10.783083,
        "name": "Éséka"
    },{
        "id": "4",
        "code": "",
        "lat": 3.514420,
        "lon": 11.507757,
        "name": "Mbalmayo"
    },{
        "id": "5",
        "code": "",
        "lat": 3.965674,
        "lon": 11.930528,
        "name": "Mfou"
    },{
        "id": "6",
        "code": "",
        "lat": 4.674023,
        "lon": 12.375027,
        "name": "Nanga-Eboko"
    },{
        "id": "7",
        "code": "",
        "lat": 4.275392,
        "lon": 11.266550,
        "name": "Monatele"
    },{
        "id": "8",
        "code": "",
        "lat": 3.593924,
        "lon": 11.306238,
        "name": "Ngoumou"
    },{
        "id": "9",
        "code": "",
        "lat": 4.446513,
        "lon": 11.624310,
        "name": "Ntui"
    },{
        "id": "10",
        "code": "",
        "lat": 3.848032,
        "lon": 11.502075,
        "name": "Yaoundé"
    }
]