[
    {
        "id": "1",
        "code": "",
        "lat": 10.111183,
        "lon": 14.443218,
        "name": "Kaélé"
    },{
        "id": "2",
        "code": "",
        "lat": 12.087083,
        "lon": 15.014832,
        "name": "Kousséri"
    },{
        "id": "3",
        "code": "",
        "lat": 10.592529,
        "lon": 14.321009,
        "name": "Maroua"
    },{
        "id": "4",
        "code": "",
        "lat": 10.742459,
        "lon": 13.804238,
        "name": "Mokolo"
    },{
        "id": "5",
        "code": "",
        "lat": 11.046517,
        "lon": 14.140795,
        "name": "Mora"
    },{
        "id": "6",
        "code": "",
        "lat": 10.347021,
        "lon": 15.237034,
        "name": "Yagoua"
    }
]